[
  {
	"id": "98c7115e-1898-4d4c-8662-8e3a3dfe7c7f",
	"name": "Adventure Flotilla",
	"shortName": null,
	"land": "Asia",
	"entityType": "SHOW",
	"slug": "donaldsdinobashflotilla",
	"externalId": "19579551;entityType=Entertainment",
	"latitude": 28.357745,
	"longitude": -81.588838,
	"description": "A floating musical performance featuring beloved Disney characters and catchy tunes."
  },
  {
	"id": "d04ec77c-c082-46fd-a253-c7c69bb14374",
	"name": "Asian Small-Clawed Otters - Disney Animals",
	"shortName": null,
	"land": "Asia",
	"entityType": "ATTRACTION",
	"slug": "asiansmallclawedottersdisneyanimals",
	"externalId": "19401798;entityType=Attraction",
	"latitude": 28.357331,
	"longitude": -81.590983,
	"description": "Watch the playful and adorable Asian small-clawed otters in their habitat."
  },
  {
	"id": "bd5eefa4-665d-4840-a3f3-eb0232dd7310",
	"name": "Chakranadi",
	"shortName": null,
	"land": "Asia",
	"entityType": "SHOW",
	"slug": null,
	"externalId": "16630482;entityType=Entertainment",
	"latitude": 28.358553,
	"longitude": -81.590054,
	"description": "A river that flows through the park, providing a scenic backdrop for attractions like Kali River Rapids."
  },
  {
	"id": "b5724816-0507-4da0-ae22-7c69df8bc871",
	"name": "Discovery River Cruise - Pocahontas",
	"shortName": null,
	"land": "Asia",
	"entityType": "SHOW",
	"slug": null,
	"externalId": "411705711;entityType=Entertainment",
	"latitude": 28.357745,
	"longitude": -81.588838,
	"description": "A peaceful boat journey that retells the story of \"Pocahontas\" through live performances."
  },
  {
	"id": "3e490fd6-8e1c-44d5-9eef-59ce897402f3",
	"name": "Discovery River Cruise - The Lion King",
	"shortName": null,
	"land": "Asia",
	"entityType": "SHOW",
	"slug": "discoveryrivercharactercruise",
	"externalId": "19579549;entityType=Entertainment",
	"latitude": 28.357745,
	"longitude": -81.588838,
	"description": "A live-action retelling of \"The Lion King\" performed on a boat floating along Discovery River."
  },
  {
	"id": "64a6915f-a835-4226-ba5c-8389fc4cade3",
	"name": "Expedition Everest - Legend of the Forbidden Mountain",
	"shortName": "Expedition Everest",
	"land": "Asia",
	"entityType": "ATTRACTION",
	"slug": "expeditioneverestlegendoftheforbiddenmountain",
	"externalId": "26068;entityType=Attraction",
	"latitude": 28.3584769119,
	"longitude": -81.5873781396,
	"description": "Embark on a thrilling roller coaster adventure as you encounter the mysterious Yeti on the legendary Forbidden Mountain."
  },
  {
	"id": "d8214ba6-22a7-4a92-8977-bae3779d5c4c",
	"name": "Feathered Friends in Flight!",
	"shortName": null,
	"land": "Asia",
	"entityType": "SHOW",
	"slug": "featheredfriendsinflight",
	"externalId": "19581372;entityType=Entertainment",
	"latitude": 28.358791,
	"longitude": -81.590061,
	"description": "A lively bird show featuring free-flying macaws and other exotic bird species."
  },
  {
	"id": "d581fdde-6679-46e5-821d-a33c9b4cc7ed",
	"name": "Gibbons - Disney Animals",
	"shortName": null,
	"land": "Asia",
	"entityType": "ATTRACTION",
	"slug": "gibbonsdisneyanimals",
	"externalId": "18685276;entityType=Attraction",
	"latitude": 28.359049,
	"longitude": -81.58874,
	"description": "Hear the haunting calls of the gibbons and learn about these acrobatic primates."
  },
  {
	"id": "d58d9262-ec95-4161-80a0-07ca43b2f5f3",
	"name": "Kali River Rapids",
	"shortName": null,
	"land": "Asia",
	"entityType": "ATTRACTION",
	"slug": "kaliriverrapids",
	"externalId": "80010154;entityType=Attraction",
	"latitude": 28.3587834288,
	"longitude": -81.5889412165,
	"description": "Brave the rapids of the Chakranadi River on a thrilling water rafting expedition."
  },
  {
	"id": "a86b36a4-a439-43cd-8994-4030a159e261",
	"name": "Komodo Dragons - Disney Animals",
	"shortName": null,
	"land": "Asia",
	"entityType": "ATTRACTION",
	"slug": "komododragonsdisneyanimals",
	"externalId": "19423228;entityType=Attraction",
	"latitude": 28.35944,
	"longitude": -81.589237,
	"description": "Encounter the largest living lizard species in their exhibit."
  },
  {
	"id": "1a8ea967-229a-42a0-8290-59b036c84e14",
	"name": "Maharajah Jungle Trek",
	"shortName": null,
	"land": "Asia",
	"entityType": "ATTRACTION",
	"slug": "maharajahjungletrek",
	"externalId": "80010164;entityType=Attraction",
	"latitude": 28.359379,
	"longitude": -81.589019,
	"description": "Explore lush forests and ancient ruins while encountering Asian animals like tigers and Komodo dragons."
  },
  {
	"id": "4edb7625-3f86-4da6-9a31-c0cd72fa94fc",
	"name": "Migratory Birds at Maharajah Jungle Trek - Disney Animals",
	"shortName": "Migratory Birds",
	"land": "Asia",
	"entityType": "ATTRACTION",
	"slug": "migratorybirdsatmaharajahjungletrekdisneyanimals",
	"externalId": "17905389;entityType=Attraction",
	"latitude": 28.359812,
	"longitude": -81.589269,
	"description": "Encounter various migratory bird species at the Maharajah Jungle Trek in Asia."
  },
  {
	"id": "c616884f-c55f-4f74-b58d-1a8374717380",
	"name": "Tigers - Disney Animals",
	"shortName": null,
	"land": "Asia",
	"entityType": "ATTRACTION",
	"slug": "tigersdisneyanimals",
	"externalId": "17905380;entityType=Attraction",
	"latitude": 28.359943,
	"longitude": -81.589736,
	"description": "See these powerful big cats in their lush Asian environment."
  },
  {
	"id": "cea213d9-bf4f-408a-ac61-768e7709ab7d",
	"name": "Yak & Yeti™ Restaurant",
	"shortName": null,
	"land": "Asia",
	"entityType": "RESTAURANT",
	"slug": "yakyetirestaurant",
	"externalId": "215686;entityType=restaurant",
	"latitude": 28.35859,
	"longitude": -81.58958,
	"description": "Savor pan-Asian dishes in a beautifully themed restaurant inspired by the travels of the proprietress."
  },
  {
	"id": "a15ce7cf-342a-4c7a-9372-7a1fa1054747",
	"name": "Affection Section",
	"shortName": null,
	"land": "Rafiki's Planet Watch",
	"entityType": "ATTRACTION",
	"slug": "affectionsection",
	"externalId": "80010104;entityType=Attraction",
	"latitude": 28.3653458262,
	"longitude": -81.5888520134,
	"description": "A petting zoo area at Rafiki's Planet Watch where guests can interact with farm animals."
  },
  {
	"id": "6fbe6d02-4057-43bb-80a3-047b1e8a50ca",
	"name": "Conservation Station",
	"shortName": null,
	"land": "Rafiki's Planet Watch",
	"entityType": "ATTRACTION",
	"slug": "conservationstation",
	"externalId": "80010119;entityType=Attraction",
	"latitude": 28.36533,
	"longitude": -81.58872,
	"description": "A dedicated area for learning about animal care, conservation efforts, and interacting with wildlife."
  },
  {
	"id": "759e7496-565c-420f-b0bd-777dfd598f08",
	"name": "Invertebrates at Conservation Station - Disney Animals",
	"shortName": null,
	"land": "Rafiki's Planet Watch",
	"entityType": "ATTRACTION",
	"slug": null,
	"externalId": "18673434;entityType=Attraction",
	"latitude": 28.36533,
	"longitude": -81.58872,
	"description": "Learn about various invertebrate species, including insects and arachnids, at Conservation Station."
  },
  {
	"id": "3b7309a5-7b57-4edf-b4e6-36ad958ac21e",
	"name": "The Animation Experience at Conservation Station",
	"shortName": null,
	"land": "Rafiki's Planet Watch",
	"entityType": "ATTRACTION",
	"slug": "theanimationexperienceatconservationstation",
	"externalId": "19330300;entityType=Attraction",
	"latitude": 28.365188,
	"longitude": -81.588669,
	"description": "An interactive drawing class at Rafiki's Planet Watch where guests learn to draw Disney characters and learn about their conservation stories."
  },
  {
	"id": "904f17dd-0ef3-4794-be7e-58b884bf81b5",
	"name": "African Birds - Disney Animals",
	"shortName": null,
	"land": "Africa",
	"entityType": "ATTRACTION",
	"slug": "africanbirdsdisneyanimals",
	"externalId": "18685279;entityType=Attraction",
	"latitude": 28.360227,
	"longitude": -81.59354,
	"description": "Discover a diverse range of African bird species in their natural habitats."
  },
  {
	"id": "8b2bcfc1-23f6-4893-aca8-8225b1884a07",
	"name": "African Elephants - Disney Animals",
	"shortName": null,
	"land": "Africa",
	"entityType": "ATTRACTION",
	"slug": "africanelephantsdisneyanimals",
	"externalId": "17883614;entityType=Attraction",
	"latitude": 28.359414,
	"longitude": -81.592318,
	"description": "Witness the beauty and majesty of African elephants in their savannah setting."
  },
  {
	"id": "1897c9b3-436c-4046-937d-b6ff98233177",
	"name": "African Hogs - Disney Animals",
	"shortName": null,
	"land": "Africa",
	"entityType": "ATTRACTION",
	"slug": "africanhogsdisneyanimals",
	"externalId": "19427475;entityType=Attraction",
	"latitude": 28.359414,
	"longitude": -81.592171,
	"description": "Encounter fascinating African hogs in their naturalistic environment."
  },
  {
	"id": "f0e0d1a3-b1a1-42a1-b514-df96b7951db2",
	"name": "African Lions - Disney Animals",
	"shortName": null,
	"land": "Africa",
	"entityType": "ATTRACTION",
	"slug": "africanlionsdisneyanimals",
	"externalId": "17883684;entityType=Attraction",
	"latitude": 28.359414,
	"longitude": -81.592273,
	"description": "Encounter the \"king of the jungle\" in a habitat that mimics the African savannah."
  },
  {
	"id": "861bf387-f362-4904-9082-99e093efa6ee",
	"name": "Ankole Cattle - Disney Animals",
	"shortName": null,
	"land": "Africa",
	"entityType": "ATTRACTION",
	"slug": "ankolecattledisneyanimals",
	"externalId": "19429176;entityType=Attraction",
	"latitude": 28.359414,
	"longitude": -81.59224,
	"description": "Observe the distinctive long-horned Ankole cattle from Africa."
  },
  {
	"id": "3655bbe2-8a41-4f35-a99f-e4d9d582c5fa",
	"name": "Black Rhinos - Disney Animals",
	"shortName": null,
	"land": "Africa",
	"entityType": "ATTRACTION",
	"slug": "blackrhinosdisneyanimals",
	"externalId": "17905385;entityType=Attraction",
	"latitude": 28.359369,
	"longitude": -81.592318,
	"description": "Observe the elusive and endangered Black Rhinoceros in a spacious habitat."
  },
  {
	"id": "3a4e0f49-f9ff-4481-a95b-d4952cdf6097",
	"name": "Festival of the Lion King",
	"shortName": null,
	"land": "Africa",
	"entityType": "SHOW",
	"slug": "acelebrationoffestivalofthelionking",
	"externalId": "12432;entityType=Entertainment",
	"latitude": 28.35811,
	"longitude": -81.592643,
	"description": "A Broadway-style musical celebration of the \"Lion King\" story with stunning performances and acrobatics."
  },
  {
	"id": "0941f812-f214-4837-9e67-ee1216ceed50",
	"name": "Flamingos at Africa - Disney Animals",
	"shortName": null,
	"land": "Africa",
	"entityType": "ATTRACTION",
	"slug": "invertebratesatgorillafallsexplorationtraildisneyanimals",
	"externalId": "18673456;entityType=Attraction",
	"latitude": 28.360469,
	"longitude": -81.59331,
	"description": "See the elegant flamingos wading through their African-themed environment."
  },
  {
	"id": "dd0392bc-2ebb-48ab-b1b5-1af1193acee2",
	"name": "Giraffes - Disney Animals",
	"shortName": null,
	"land": "Africa",
	"entityType": "ATTRACTION",
	"slug": "giraffesdisneyanimals",
	"externalId": "18478569;entityType=Attraction",
	"latitude": 28.359414,
	"longitude": -81.59224,
	"description": "Marvel at the graceful and towering giraffes as they roam the savannah."
  },
  {
	"id": "e7976e25-4322-4587-8ded-fb1d9dcbb83c",
	"name": "Gorilla Falls Exploration Trail",
	"shortName": null,
	"land": "Africa",
	"entityType": "ATTRACTION",
	"slug": "gorillafallsexplorationtrail",
	"externalId": "80010175;entityType=Attraction",
	"latitude": 28.359954,
	"longitude": -81.592149,
	"description": "Walk along this trail to observe gorillas, hippos, meerkats, and exotic birds in their habitats."
  },
  {
	"id": "811984d7-56f4-4ca6-848d-896d46aca846",
	"name": "Gorillas - Disney Animals",
	"shortName": null,
	"land": "Africa",
	"entityType": "ATTRACTION",
	"slug": "gorillasdisneyanimals",
	"externalId": "17883688;entityType=Attraction",
	"latitude": 28.360758,
	"longitude": -81.593059,
	"description": "A gorilla habitat where guests can observe these magnificent primates up close."
  },
  {
	"id": "5f8057b4-adfd-4258-906d-9ae3485ffbff",
	"name": "Harambe Village Acrobats",
	"shortName": null,
	"land": "Africa",
	"entityType": "SHOW",
	"slug": "harambevillageacrobats",
	"externalId": "18425797;entityType=Entertainment",
	"latitude": 28.3591486373062,
	"longitude": -81.5915742811563,
	"description": "Be amazed by the acrobatic talents of this African performance group in Harambe village."
  },
  {
	"id": "125d9166-634b-41ec-a29c-182bb0a71dba",
	"name": "Hippopotamuses - Disney Animals",
	"shortName": null,
	"land": "Africa",
	"entityType": "ATTRACTION",
	"slug": "hippopotamusesdisneyanimals",
	"externalId": "18478570;entityType=Attraction",
	"latitude": 28.359414,
	"longitude": -81.592199,
	"description": "See the \"river horses\" in a watery setting, showcasing their unique semi-aquatic lifestyle."
  },
  {
	"id": "32e01181-9a5f-4936-8a77-0dace1de836c",
	"name": "Kilimanjaro Safaris",
	"shortName": null,
	"land": "Africa",
	"entityType": "ATTRACTION",
	"slug": "kilimanjarosafaris",
	"externalId": "80010157;entityType=Attraction",
	"latitude": 28.359331,
	"longitude": -81.59228,
	"description": "Embark on an authentic African safari adventure to encounter a wide variety of wildlife in their natural habitats."
  },
  {
	"id": "7f97be37-1210-462a-8039-1751c9b0b6a8",
	"name": "Meerkats - Disney Animals",
	"shortName": null,
	"land": "Africa",
	"entityType": "ATTRACTION",
	"slug": "meerkatsdisneyanimals",
	"externalId": "19437429;entityType=Attraction",
	"latitude": 28.360758,
	"longitude": -81.593059,
	"description": "Observe the charming meerkats as they display their social behavior."
  },
  {
	"id": "f9e169bf-1e27-47c9-9f0f-ce8c6df4da53",
	"name": "Okapis - Disney Animals",
	"shortName": null,
	"land": "Africa",
	"entityType": "ATTRACTION",
	"slug": "okapisdisneyanimals",
	"externalId": "18478578;entityType=Attraction",
	"latitude": 28.359414,
	"longitude": -81.592171,
	"description": "Observe these elusive forest giraffes in a habitat that resembles the dense rainforest."
  },
  {
	"id": "d8497541-53a2-4206-b95f-39cb238ae511",
	"name": "Tam Tam Drummers of Harambe",
	"shortName": null,
	"land": "Africa",
	"entityType": "SHOW",
	"slug": "tamtamdrummersofharambe",
	"externalId": "72877;entityType=Entertainment",
	"latitude": 28.35873,
	"longitude": -81.591928,
	"description": "Enjoy the energetic beats of these African drummers in Harambe village."
  },
  {
	"id": "d58db4d0-3bad-4655-937b-1cbc9ed0e880",
	"name": "Tusker House Restaurant",
	"shortName": "Tusker House",
	"land": "Africa",
	"entityType": "RESTAURANT",
	"slug": "tuskerhouserestaurant",
	"externalId": "90002686;entityType=restaurant",
	"latitude": 28.3585843066,
	"longitude": -81.5921041919,
	"description": "Enjoy a lively character dining experience with African-inspired cuisine."
  },
  {
	"id": "97552d3f-8ddf-4aa5-b7b1-e14d5bd05568",
	"name": "White Rhinos - Disney Animals",
	"shortName": null,
	"land": "Africa",
	"entityType": "ATTRACTION",
	"slug": "whiterhinosdisneyanimals",
	"externalId": "17905384;entityType=Attraction",
	"latitude": 28.359369,
	"longitude": -81.592318,
	"description": "Learn about and appreciate the critically endangered Southern White Rhinoceros."
  },
  {
	"id": "4f391f0e-52be-4f9d-99d6-b3ae0373b43c",
	"name": "Wildlife Express Train",
	"shortName": null,
	"land": "Africa",
	"entityType": "ATTRACTION",
	"slug": "wildlifeexpresstrain",
	"externalId": "80010235;entityType=Attraction",
	"latitude": 28.3598097347,
	"longitude": -81.5914175464,
	"description": "Hop aboard the Wildlife Express Train to Rafiki's Planet Watch, offering a behind-the-scenes look at animal care and conservation."
  },
  {
	"id": "1dd9eb9b-ce6d-451b-b8ef-f39b3435b35a",
	"name": "Zebras at Africa - Disney Animals",
	"shortName": null,
	"land": "Africa",
	"entityType": "ATTRACTION",
	"slug": "zebrasatgorillafallsexplorationtraildisneyanimals",
	"externalId": "18673408;entityType=Attraction",
	"latitude": 28.360635,
	"longitude": -81.592578,
	"description": "Observe zebras in their African habitat."
  },
  {
	"id": "127eb7ec-9d9f-43bc-a259-9eb03c467fef",
	"name": "Zebras at Kilimanjaro Safaris - Disney Animals",
	"shortName": null,
	"land": "Africa",
	"entityType": "ATTRACTION",
	"slug": "zebrasatkilimanjarosafarisdisneyanimals",
	"externalId": "18673399;entityType=Attraction",
	"latitude": 28.359414,
	"longitude": -81.592137,
	"description": "Spot the striking black-and-white striped zebras during your Kilimanjaro Safaris expedition."
  },
  {
	"id": "93d3c183-737f-4e26-98f9-b18a3e190393",
	"name": "Animal Encounters: Winged Encounters – The Kingdom Takes Flight",
	"shortName": null,
	"land": "Discovery Island",
	"entityType": "SHOW",
	"slug": "animalencounterswingedencountersthekingdomtakesflight",
	"externalId": "17821434;entityType=Entertainment",
	"latitude": 28.357339,
	"longitude": -81.590462,
	"description": "Marvel at the majestic sight of macaws as they take to the sky in this bird presentation."
  },
  {
	"id": "e8ada80c-bee5-4584-a715-aa847c615cd5",
	"name": "Beacons of Magic",
	"shortName": null,
	"land": "Discovery Island",
	"entityType": "SHOW",
	"slug": null,
	"externalId": "19630231;entityType=Entertainment",
	"latitude": 28.357994,
	"longitude": -81.590597,
	"description": "Dazzling nighttime lighting effects that enhance the beauty of the park's iconic structures."
  },
  {
	"id": "f39dbb08-35db-4ad4-885d-e4787de5bde6",
	"name": "Cotton-Top Tamarins - Disney Animals",
	"shortName": "Cotton-Top Tamarins",
	"land": "Discovery Island",
	"entityType": "ATTRACTION",
	"slug": "cottontoptamarinsdisneyanimals",
	"externalId": "17883689;entityType=Attraction",
	"latitude": 28.357901,
	"longitude": -81.591501,
	"description": "Watch the playful and adorable cotton-top tamarins in their habitat."
  },
  {
	"id": "af420c20-96c0-4ea2-bb7f-d68385291f88",
	"name": "Discovery Island Drummers Flotilla",
	"shortName": null,
	"land": "Discovery Island",
	"entityType": "SHOW",
	"slug": "discoveryislanddrummersflotilla",
	"externalId": "19581371;entityType=Entertainment",
	"latitude": 28.357466,
	"longitude": -81.58792,
	"description": "A lively musical flotilla that cruises along Discovery River."
  },
  {
	"id": "4d27b0d7-2b0a-4569-90fa-e79f117ec7ef",
	"name": "Discovery Island Trails",
	"shortName": null,
	"land": "Discovery Island",
	"entityType": "ATTRACTION",
	"slug": "discoveryislandtrails",
	"externalId": "80010126;entityType=Attraction",
	"latitude": 28.3576693526,
	"longitude": -81.5912935138,
	"description": "Scenic walking paths around the Tree of Life where you can encounter various animal exhibits."
  },
  {
	"id": "a08d9f84-fbdf-45f3-9b68-645d296de307",
	"name": "DiVine",
	"shortName": null,
	"land": "Discovery Island",
	"entityType": "SHOW",
	"slug": null,
	"externalId": "432709;entityType=Entertainment",
	"latitude": 28.355795,
	"longitude": -81.589863,
	"description": "A living, nature-themed character that blends into the surroundings, surprising and delighting guests as she moves through the foliage."
  },
  {
	"id": "17ecfc8c-8013-4d48-805b-f37f94cc2452",
	"name": "Flamingos at Discovery Island - Disney Animals",
	"shortName": null,
	"land": "Discovery Island",
	"entityType": "ATTRACTION",
	"slug": "flamingosdisneyanimals",
	"externalId": "18685133;entityType=Attraction",
	"latitude": 28.357587,
	"longitude": -81.591099,
	"description": "View the vibrant flamingos as they gracefully move through their lagoon."
  },
  {
	"id": "ba44245e-5562-4359-be27-9dfb2d96cb2d",
	"name": "It's Tough to be a Bug!",
	"shortName": null,
	"land": "Discovery Island",
	"entityType": "ATTRACTION",
	"slug": "itstoughtobeabug",
	"externalId": "80010150;entityType=Attraction",
	"latitude": 28.357488,
	"longitude": -81.590118,
	"description": "A 3D show inside the Tree of Life that features characters from \"A Bug's Life\" and highlights the importance of insects in nature."
  },
  {
	"id": "dd142c0b-622a-4b44-8e22-c0facb2b20a8",
	"name": "Kora Tinga Tinga",
	"shortName": null,
	"land": "Discovery Island",
	"entityType": "SHOW",
	"slug": "koratingatinga",
	"externalId": "18435910;entityType=Entertainment",
	"latitude": 28.35899,
	"longitude": -81.591471,
	"description": "A captivating musical and acrobatic performance showcasing the rich African culture."
  },
  {
	"id": "13d7c9d1-a785-403d-9ba8-71fee2f02d55",
	"name": "Meet Favorite Disney Pals at Adventurers Outpost",
	"shortName": null,
	"land": "Discovery Island",
	"entityType": "SHOW",
	"slug": "meetfavoritedisneypalsatadventurersoutpost",
	"externalId": "17421326;entityType=Entertainment",
	"latitude": 28.357972,
	"longitude": -81.589796,
	"description": "Meet Mickey and Minnie in their adventurer attire at this character meet-and-greet location."
  },
  {
	"id": "20b61c85-1c69-4576-8d8e-ba7b16915577",
	"name": "Migratory Birds at The Oasis Exhibits - Disney Animals",
	"shortName": null,
	"land": "Discovery Island",
	"entityType": "ATTRACTION",
	"slug": "migratorybirdsattheoasisexhibitsdisneyanimals",
	"externalId": "17905394;entityType=Attraction",
	"latitude": 28.356166,
	"longitude": -81.590243,
	"description": "Discover migratory birds amidst lush vegetation at The Oasis Exhibits."
  },
  {
	"id": "239d5e6c-28c4-4ed4-80a9-d332692c0758",
	"name": "Migratory Birds at Tree of Life - Disney Animals",
	"shortName": null,
	"land": "Discovery Island",
	"entityType": "ATTRACTION",
	"slug": "migratorybirdsattreeoflifedisneyanimals",
	"externalId": "17905399;entityType=Attraction",
	"latitude": 28.357995,
	"longitude": -81.58998,
	"description": "Observe migratory birds from various species at the Tree of Life."
  },
  {
	"id": "bc997600-fcc0-4f6f-b908-a1419b26cfd8",
	"name": "The Oasis Exhibits",
	"shortName": null,
	"land": "Discovery Island",
	"entityType": "ATTRACTION",
	"slug": "theoasisexhibits",
	"externalId": "80010214;entityType=Attraction",
	"latitude": 28.355965,
	"longitude": -81.59014,
	"description": "A tranquil area at the park's entrance showcasing various animals like giant anteaters and exotic birds."
  },
  {
	"id": "e12fb6d6-0985-44e5-bdd3-65ff74433063",
	"name": "Tiffins Restaurant",
	"shortName": null,
	"land": "Discovery Island",
	"entityType": "RESTAURANT",
	"slug": "tiffinsrestaurant",
	"externalId": "18069632;entityType=restaurant",
	"latitude": 28.356846,
	"longitude": -81.591487,
	"description": "A signature dining restaurant that celebrates the art of traveling and features global cuisine."
  },
  {
	"id": "bc1ffa86-9b1a-4ce9-84a5-b479dfa3cb53",
	"name": "Tree of Life",
	"shortName": null,
	"land": "Discovery Island",
	"entityType": "ATTRACTION",
	"slug": "treeoflife",
	"externalId": "80010217;entityType=Attraction",
	"latitude": 28.357994,
	"longitude": -81.590597,
	"description": "A stunning 145-foot-tall tree adorned with intricate animal carvings and housing the \"It's Tough to be a Bug!\" attraction inside."
  },
  {
	"id": "2a55aee6-c87a-4bda-a3d4-b022693a62a3",
	"name": "Tree of Life Awakenings",
	"shortName": null,
	"land": "Discovery Island",
	"entityType": "SHOW",
	"slug": null,
	"externalId": "18447293;entityType=Entertainment",
	"latitude": 28.357994,
	"longitude": -81.590597,
	"description": "Stunning projections on the Tree of Life depicting various animal stories and natural wonders."
  },
  {
	"id": "704426b6-9fb3-4ff9-8f6b-44d52c551ac3",
	"name": "Tree of Life Awakenings: A Beacon of Magic",
	"shortName": null,
	"land": "Discovery Island",
	"entityType": "SHOW",
	"slug": null,
	"externalId": "411500808;entityType=Entertainment",
	"latitude": 28.3578995739119,
	"longitude": -81.5906215252707,
	"description": "A mesmerizing projection show that brings the Tree of Life to life with captivating stories."
  },
  {
	"id": "a349429a-5ef8-41c4-9a28-84ed4f7a0465",
	"name": "Viva Gaia Street Band!",
	"shortName": null,
	"land": "Discovery Island",
	"entityType": "SHOW",
	"slug": "vivagaiastreetband",
	"externalId": "16629705;entityType=Entertainment",
	"latitude": 28.357122,
	"longitude": -81.589667,
	"description": "Enjoy the vibrant rhythms of this street band, spreading musical joy around the park."
  },
  {
	"id": "380c7bc4-646e-439a-8699-be1cd603a36d",
	"name": "Vultures - Disney Animals",
	"shortName": null,
	"land": "Discovery Island",
	"entityType": "ATTRACTION",
	"slug": "vulturesdisneyanimals",
	"externalId": "18673386;entityType=Attraction",
	"latitude": 28.357602,
	"longitude": -81.590752,
	"description": "Observe these vital scavengers and learn about their ecological role."
  },
  {
	"id": "6ef1b126-5b0b-46a1-8608-4fcf98ab92c8",
	"name": "Wilderness Explorers",
	"shortName": null,
	"land": "Discovery Island",
	"entityType": "ATTRACTION",
	"slug": "wildernessexplorers",
	"externalId": "17396838;entityType=Attraction",
	"latitude": 28.356682,
	"longitude": -81.590292,
	"description": "An interactive experience where guests can become Wilderness Explorers, completing challenges and earning badges throughout the park."
  },
  {
	"id": "24cf863c-b6ba-4826-a056-0b698989cbf7",
	"name": "Avatar Flight of Passage",
	"shortName": null,
	"land": "Pandora: The World of Avatar",
	"entityType": "ATTRACTION",
	"slug": "avatarflightofpassage",
	"externalId": "18665186;entityType=Attraction",
	"latitude": 28.355554,
	"longitude": -81.592147,
	"description": "Experience an exhilarating flight on the back of a banshee through the breathtaking landscapes of Pandora."
  },
  {
	"id": "7a5af3b7-9bc1-4962-92d0-3ea9c9ce35f0",
	"name": "Na'vi River Journey",
	"shortName": null,
	"land": "Pandora: The World of Avatar",
	"entityType": "ATTRACTION",
	"slug": "naviriverjourney",
	"externalId": "18665185;entityType=Attraction",
	"latitude": 28.355257,
	"longitude": -81.591641,
	"description": "Glide through the bioluminescent forests of Pandora on a boat ride filled with mesmerizing sights and sounds."
  },
  {
	"id": "b9be5b8f-fe1f-4a77-bcad-5399429ecaa6",
	"name": "Dino-Sue",
	"shortName": null,
	"land": "DinoLand U.S.A.",
	"entityType": "ATTRACTION",
	"slug": "dinosue",
	"externalId": "80010124;entityType=Attraction",
	"latitude": 28.355745,
	"longitude": -81.588646,
	"description": "See the impressive replica of a Tyrannosaurus Rex skeleton, named Sue, in DinoLand U.S.A."
  },
  {
	"id": "55c531b6-3ce2-4c47-a8a1-0dc9107d825b",
	"name": "DINOSAUR",
	"shortName": null,
	"land": "DinoLand U.S.A.",
	"entityType": "ATTRACTION",
	"slug": "dinosaur",
	"externalId": "80010123;entityType=Attraction",
	"latitude": 28.355307,
	"longitude": -81.588444,
	"description": "Go back in time on a wild and bumpy journey to save a dinosaur from extinction in this dark ride."
  },
  {
	"id": "f8d2730d-1fcb-414e-94bb-0a0f876d7720",
	"name": "Donald's Dino-Bash!",
	"shortName": null,
	"land": "DinoLand U.S.A.",
	"entityType": "SHOW",
	"slug": "donaldsdinobash",
	"externalId": "18984704;entityType=Entertainment",
	"latitude": 28.356385,
	"longitude": -81.587919,
	"description": "Join Donald Duck and friends for a prehistoric party filled with fun and games."
  },
  {
	"id": "95712b31-ceed-4f7d-be3e-3d5e6badac5c",
	"name": "Finding Nemo: The Big Blue... and Beyond!",
	"shortName": null,
	"land": "DinoLand U.S.A.",
	"entityType": "SHOW",
	"slug": null,
	"externalId": "411550125;entityType=Entertainment",
	"latitude": 28.357401,
	"longitude": -81.587455,
	"description": "A musical stage show featuring characters from \"Finding Nemo\" and \"Finding Dory."
  },
  {
	"id": "41b5c2ea-7c6f-47b5-8330-c00ffa347376",
	"name": "Fossil Fun Games",
	"shortName": null,
	"land": "DinoLand U.S.A.",
	"entityType": "ATTRACTION",
	"slug": "fossilfungames",
	"externalId": "80010133;entityType=Attraction",
	"latitude": 28.35677,
	"longitude": -81.587961,
	"description": "Enjoy fun and challenging carnival-style games with a prehistoric twist."
  },
  {
	"id": "43e5558e-2be0-4989-b80b-074afa8302a9",
	"name": "The Boneyard",
	"shortName": null,
	"land": "DinoLand U.S.A.",
	"entityType": "ATTRACTION",
	"slug": "theboneyard",
	"externalId": "80010203;entityType=Attraction",
	"latitude": 28.3566787564,
	"longitude": -81.5884791864,
	"description": "A fun-filled play area where kids can dig for fossils, explore a maze, and have imaginative adventures."
  },
  {
	"id": "1627c724-112c-4361-aeba-dae80082c90d",
	"name": "TriceraTop Spin",
	"shortName": null,
	"land": "DinoLand U.S.A.",
	"entityType": "ATTRACTION",
	"slug": "triceratopspin",
	"externalId": "80010228;entityType=Attraction",
	"latitude": 28.356503,
	"longitude": -81.588074,
	"description": "A dinosaur-themed spinner ride where guests can soar through the air on their very own Triceratops."
  },
  {
	"id": "63687e52-8d88-4f3c-8817-579ded518a21",
	"name": "Disney KiteTails",
	"shortName": null,
	"land": "NA",
	"entityType": "SHOW",
	"slug": null,
	"externalId": "19630156;entityType=Entertainment",
	"latitude": 28.357466,
	"longitude": -81.58792,
	"description": "A high-flying show featuring colorful kites shaped like Disney characters and wildlife."
  },
  {
	"id": "16fdff47-c8b1-4228-b97d-242f3663396e",
	"name": "Mickey and Friends Flotilla",
	"shortName": null,
	"land": "NA",
	"entityType": "SHOW",
	"slug": "mickeyandfriendsflotilla",
	"externalId": "19579552;entityType=Entertainment",
	"latitude": 28.357745,
	"longitude": -81.588838,
	"description": "A boat parade where Mickey Mouse and friends greet guests from the water."
  },
  {
	"id": "224d803c-cd7a-45d8-bfab-d843f2030983",
	"name": "Rainforest Cafe® at Disney's Animal Kingdom",
	"shortName": null,
	"land": "Oasis",
	"entityType": "RESTAURANT",
	"slug": "rainforestcafeatdisneysanimalkingdom",
	"externalId": "90002440;entityType=restaurant",
	"latitude": 28.35478,
	"longitude": -81.59039,
	"description": "Dine in a lively rainforest environment with animatronic animals and tropical surroundings."
  }
]
