[
	{
"id": "3d8f8f8f-f984-4d2e-8dea-5a79432bdf05",
"name": "Advanced Training Lab",
"shortName": null,
"land": "World Discovery",
"entityType": "ATTRACTION",
"slug": "advancedtraininglab",
"externalId": "3831;entityType=Attraction",
"latitude": 28.374185,
"longitude": -81.547072,
"description": "Engage in space-themed challenges and interactive play in this area that ignites the astronaut within you."
},
{
"id": "eb6a60d7-b354-47a1-a091-0beb11b24188",
"name": "Akershus Royal Banquet Hall",
"shortName": null,
"land": "World Showcase",
"entityType": "RESTAURANT",
"slug": "akershusroyalbanquethall",
"externalId": "90002066;entityType=restaurant",
"latitude": 28.370452,
"longitude": -81.546785,
"description": "Experience a royal feast fit for a princess in this enchanting dining hall where beloved Disney princesses greet guests and create magical memories."
},
{
"id": "5979b17a-4af3-449d-8d9c-3ca312d1f3da",
"name": "Alberta Bound",
"shortName": null,
"land": "World Showcase",
"entityType": "SHOW",
"slug": null,
"externalId": "78700;entityType=Entertainment",
"latitude": 28.371202,
"longitude": -81.551509,
"description": "Tap your feet to the lively rhythms and tunes of a Canadian musical group that celebrates the vibrant spirit of Alberta."
},
{
"id": "4f0df9e7-d4c1-45b5-93e2-4a7bc92547b0",
"name": "American Heritage Gallery",
"shortName": null,
"land": "World Showcase",
"entityType": "ATTRACTION",
"slug": "americanheritagegallery",
"externalId": "26421;entityType=Attraction",
"latitude": 28.367517,
"longitude": -81.549469,
"description": "Immerse yourself in American history and culture through exhibits that showcase the diverse heritage and achievements of the United States."
},
{
"id": "5cd0aeed-2e8a-41c8-9a33-55eb5b121962",
"name": "Atlas Fusion",
"shortName": null,
"land": "World Showcase",
"entityType": "SHOW",
"slug": null,
"externalId": "19496225;entityType=Entertainment",
"latitude": 28.36818,
"longitude": -81.55151,
"description": "Immerse yourself in the artistry and athleticism of this acrobatic show that blends dance, music, and imagination from around the world."
},
{
"id": "482169b9-2889-4747-8aef-f9d13a37d940",
"name": "Awesome Planet",
"shortName": null,
"land": "World Nature",
"entityType": "ATTRACTION",
"slug": "awesomeplanet",
"externalId": "19473173;entityType=Attraction",
"latitude": 28.374301,
"longitude": -81.552138,
"description": "Discover the beauty of Earth and the importance of conservation in this inspiring film that showcases the wonders of our planet."
},
{
"id": "8c8cd77d-97f6-4309-b285-42aad90e9f15",
"name": "Beauty and the Beast Sing-Along",
"shortName": null,
"land": "World Showcase",
"entityType": "ATTRACTION",
"slug": "beautyandthebeastsingalong",
"externalId": "19463785;entityType=Attraction",
"latitude": 28.368864,
"longitude": -81.552978,
"description": "Sing along to the enchanting tale of Beauty and the Beast in this interactive show that brings the beloved story to life with the magic of music and audience participation."
},
{
"id": "c9e1d1f6-021f-43f2-a14b-3e67f65adbc4",
"name": "Biergarten Restaurant",
"shortName": null,
"land": "World Showcase",
"entityType": "RESTAURANT",
"slug": "biergartenrestaurant",
"externalId": "90001292;entityType=restaurant",
"latitude": 28.368153,
"longitude": -81.546819,
"description": "Raise a stein to German culture and cuisine in this lively beer hall, where you can enjoy a festive buffet with live entertainment and communal dining."
},
{
"id": "6f1d3b25-42c9-4e99-9dce-6c20d7a5deea",
"name": "Bijutsu-kan Gallery",
"shortName": null,
"land": "World Showcase",
"entityType": "ATTRACTION",
"slug": "bijutsukangallery",
"externalId": "80069745;entityType=Attraction",
"latitude": 28.367309,
"longitude": -81.550525,
"description": "Immerse yourself in the world of Japanese art and culture as this exhibit features rotating displays of captivating artistic masterpieces."
},
{
"id": "2ecc4fff-2994-476f-9926-24a4af173838",
"name": "Bruce's Shark World",
"shortName": null,
"land": "World Nature",
"entityType": "ATTRACTION",
"slug": "brucessharkworld",
"externalId": "56404;entityType=Attraction",
"latitude": 28.375099,
"longitude": -81.551245451,
"description": "Join the adventure in this playful area inspired by Bruce, the friendly shark from Finding Nemo, where kids can explore, climb, and play."
},
{
"id": "61fb49f8-e62f-4e1c-ae0e-8ab9929037bc",
"name": "Canada Far and Wide in Circle-Vision 360",
"shortName": null,
"land": "World Showcase",
"entityType": "ATTRACTION",
"slug": "canadafarandwideincirclevision360",
"externalId": "80010174;entityType=Attraction",
"latitude": 28.371694,
"longitude": -81.55196,
"description": "Embark on a stunning journey across Canada's diverse landscapes and cultural heritage in this breathtaking 360-degree film."
},
{
"id": "4807262a-ad16-4d43-a0d7-64b24603ef36",
"name": "Chefs de France",
"shortName": null,
"land": "World Showcase",
"entityType": "RESTAURANT",
"slug": "chefsdefrance",
"externalId": "90001373;entityType=restaurant",
"latitude": 28.368954,
"longitude": -81.552639,
"description": "Dine in elegance at this authentic French brasserie, where you can savor classic French dishes prepared by skilled chefs."
},
{
"id": "38892221-f69c-4913-97c9-7473c88854fa",
"name": "Coral Reef Restaurant",
"shortName": null,
"land": "World Nature",
"entityType": "RESTAURANT",
"slug": "coralreefrestaurant",
"externalId": "90001416;entityType=restaurant",
"latitude": 28.375096,
"longitude": -81.550458,
"description": "Dine amidst an underwater paradise at this unique restaurant with massive aquarium walls, offering panoramic views of a diverse array of marine life."
},
{
"id": "329c91db-3b4f-40e5-adaa-f902e6f450f9",
"name": "Coral Reefs - Disney Animals",
"shortName": null,
"land": "World Nature",
"entityType": "ATTRACTION",
"slug": "coralreefsdisneyanimals",
"externalId": "17883690;entityType=Attraction",
"latitude": 28.375631,
"longitude": -81.550866,
"description": "Discover the wonder of coral reefs and learn about their vital role in marine ecosystems. Explore marine life and conservation efforts dedicated to preserving these delicate underwater habitats."
},
{
"id": "35ed719b-f7f0-488f-8346-4fbf8055d373",
"name": "Disney and Pixar Short Film Festival",
"shortName": null,
"land": "World Celebration",
"entityType": "ATTRACTION",
"slug": "disneyandpixarshortfilmfestival",
"externalId": "18269694;entityType=Attraction",
"latitude": 28.37263,
"longitude": -81.55115,
"description": "Immerse yourself in heartwarming and entertaining short films featuring beloved Disney and Pixar characters in this 4D movie experience."
},
{
"id": "81e6f8fc-068c-4d20-9433-2353992cec7a",
"name": "Disney® Visa® Cardmember Photo Opportunity at EPCOT",
"shortName": "Photo Opportunity at EPCOT",
"land": "World Celebration",
"entityType": "SHOW",
"slug": "disneyvisacardmemberphotoopportunityatepcot",
"externalId": "15958368;entityType=Entertainment",
"latitude": 28.37258,
"longitude": -81.550904,
"description": "Capture a magical moment with exclusive Disney Visa Cardmember Photo Opportunities throughout EPCOT."
},
{
"id": "64f25dcf-66cb-4b07-b081-6c3f77d46b65",
"name": "EPCOT Forever",
"shortName": null,
"land": "World Showcase",
"entityType": "SHOW",
"slug": "epcotforever",
"externalId": "19258170;entityType=Entertainment",
"latitude": 28.370146,
"longitude": -81.549394,
"description": "Experience the magic of EPCOT with this nighttime spectacular featuring soaring fireworks, stunning visuals, and a celebration of the park's past, present, and future."
},
{
"id": "8d7ccdb1-a22b-4e26-8dc8-65b1938ed5f0",
"name": "Frozen Ever After",
"shortName": null,
"land": "World Showcase",
"entityType": "ATTRACTION",
"slug": "frozeneverafter",
"externalId": "18375495;entityType=Attraction",
"latitude": 28.370745,
"longitude": -81.54653,
"description": "Embark on an enchanting boat ride with Anna, Elsa, and Olaf from Disney's Frozen. Experience memorable scenes and songs from the beloved film while reliving the magic of Arendelle."
},
{
"id": "07dbeaea-85fa-45f2-872f-02f9e7510419",
"name": "Gallery of Arts and History",
"shortName": null,
"land": "World Showcase",
"entityType": "ATTRACTION",
"slug": "galleryofartsandhistory",
"externalId": "80010137;entityType=Attraction",
"latitude": 28.368236,
"longitude": -81.551612,
"description": "Discover the captivating culture and history of Morocco as you explore exhibits featuring traditional Moroccan arts and crafts."
},
{
"id": "d4179c4c-eb08-4559-aa7c-f9802fda641b",
"name": "Garden Grill Restaurant",
"shortName": null,
"land": "World Nature",
"entityType": "RESTAURANT",
"slug": "gardengrillrestaurant",
"externalId": "90002237;entityType=restaurant",
"latitude": 28.374039,
"longitude": -81.552324,
"description": "Feast on a delicious harvest-style meal at this rotating restaurant with views of Living with the Land."
},
{
"id": "22f48b73-01df-460e-8969-9eb2b4ae836c",
"name": "Gran Fiesta Tour Starring The Three Caballeros",
"shortName": null,
"land": "World Showcase",
"entityType": "ATTRACTION",
"slug": "granfiestatourstarringthethreecaballeros",
"externalId": "207395;entityType=Attraction",
"latitude": 28.371649,
"longitude": -81.547368,
"description": "Embark on a whimsical boat journey with Donald Duck, José Carioca, and Panchito as they lead you on a fun-filled adventure through the heart of Mexico, featuring vibrant scenes and catchy tunes."
},
{
"id": "9d3adf0b-f0bf-43c6-b92f-90236880d3db",
"name": "Groovin' Alps",
"shortName": null,
"land": "World Showcase",
"entityType": "SHOW",
"slug": null,
"externalId": "18923661;entityType=Entertainment",
"latitude": 28.368651,
"longitude": -81.546584,
"description": "Tap your feet to the lively rhythms of traditional Alpine music performed by this entertaining musical group."
},
{
"id": "e3549451-b284-453d-9c31-e3b1207abd79",
"name": "Guardians of the Galaxy: Cosmic Rewind",
"shortName": null,
"land": "World Discovery",
"entityType": "ATTRACTION",
"slug": null,
"externalId": "411499845;entityType=Attraction",
"latitude": 28.3749021961781,
"longitude": -81.5478397673417,
"description": "Embark on an exhilarating cosmic adventure with the Guardians of the Galaxy in this thrilling indoor roller coaster."
},
{
"id": "0f40274d-420a-425a-9377-29fd6e49484f",
"name": "House of the Whispering Willows",
"shortName": null,
"land": "World Showcase",
"entityType": "ATTRACTION",
"slug": "houseofthewhisperingwillows",
"externalId": "160914;entityType=Attraction",
"latitude": 28.36999,
"longitude": -81.546334,
"description": "Immerse yourself in Chinese culture and tradition in this tranquil garden that tells the story of an ancient tale of love and transformation."
},
{
"id": "3e5f26ee-c02d-47fd-891e-5e4479073444",
"name": "ImageWorks - The \"What If\" Labs",
"shortName": null,
"land": "World Celebration",
"entityType": "ATTRACTION",
"slug": "imageworksthewhatiflabs",
"externalId": "80010144;entityType=Attraction",
"latitude": 28.372774,
"longitude": -81.551121,
"description": "Let your creativity soar in this interactive playground where imagination knows no bounds. Engage in playful activities that inspire curiosity and fun for guests of all ages."
},
{
"id": "00666fe9-7774-4b53-9fb7-3d333f8aa503",
"name": "Impressions de France",
"shortName": null,
"land": "World Showcase",
"entityType": "ATTRACTION",
"slug": "impressionsdefrance",
"externalId": "80010145;entityType=Attraction",
"latitude": 28.368864,
"longitude": -81.552978,
"description": "Be transported to the beauty of France through this film that showcases its picturesque landscapes, iconic landmarks, and rich culture."
},
{
"id": "86ea784f-eed1-4696-ac01-ebb65589bf0e",
"name": "Invertebrates at EPCOT - Disney Animals",
"shortName": null,
"land": "World Nature",
"entityType": "ATTRACTION",
"slug": "invertebratesatepcotdisneyanimals",
"externalId": "18673469;entityType=Attraction",
"latitude": 28.375631,
"longitude": -81.550866,
"description": "Learn about the fascinating world of invertebrates and their vital roles in ecosystems through interactive exhibits and educational experiences."
},
{
"id": "3beaa9a5-6404-4446-bfd1-e0d0eea65e85",
"name": "JAMMitors",
"shortName": null,
"land": "World Discovery",
"entityType": "SHOW",
"slug": "jammingardeners",
"externalId": "13507;entityType=Entertainment",
"latitude": 28.373873,
"longitude": -81.548221,
"description": "Enjoy a lively percussion performance by this quirky group that uses everyday items to create infectious beats and rhythms."
},
{
"id": "75449e85-c410-4cef-a368-9d2ea5d52b58",
"name": "Journey Into Imagination With Figment",
"shortName": null,
"land": "World Celebration",
"entityType": "ATTRACTION",
"slug": "journeyintoimaginationwithfigment",
"externalId": "80010152;entityType=Attraction",
"latitude": 28.372994,
"longitude": -81.551401,
"description": "Join Figment, the lovable purple dragon, on a whimsical journey through the imagination, celebrating creativity and the power of imagination."
},
{
"id": "3ace01d1-15fc-4fbb-99e4-81a696cb2d05",
"name": "Kidcot Fun Stops",
"shortName": null,
"land": "World Showcase",
"entityType": "ATTRACTION",
"slug": "kidcotfunstops",
"externalId": "91245;entityType=Attraction",
"latitude": 28.3718643,
"longitude": -81.551537,
"description": "Embark on an artistic adventure at various stops throughout the World Showcase, where kids can create and decorate special keepsakes inspired by different countries and cultures."
},
{
"id": "736b2e6c-daaf-45c4-ba9e-fb60d7cf92d6",
"name": "La Cava del Tequila",
"shortName": null,
"land": "World Showcase",
"entityType": "RESTAURANT",
"slug": "lacavadeltequila",
"externalId": "348023;entityType=restaurant",
"latitude": 28.37158,
"longitude": -81.547299,
"description": "Discover the rich and diverse world of tequila as you sample premium selections and handcrafted cocktails in a cozy Mexican-inspired setting."
},
{
"id": "fc64aa10-290f-472e-9fab-4d649f53ab2d",
"name": "La Crêperie de Paris",
"shortName": null,
"land": "World Showcase",
"entityType": "RESTAURANT",
"slug": null,
"externalId": "19511274;entityType=restaurant",
"latitude": 28.368536,
"longitude": -81.553597,
"description": "Savor the sweet and savory delights of authentic French crepes in this charming Parisian-style crêperie."
},
{
"id": "5b7cf10a-763b-45ba-9049-87140270826f",
"name": "La Hacienda de San Angel",
"shortName": null,
"land": "World Showcase",
"entityType": "RESTAURANT",
"slug": "lahaciendadesanangel",
"externalId": "15525573;entityType=restaurant",
"latitude": 28.371221,
"longitude": -81.547532,
"description": "Enjoy waterfront dining with stunning views of the World Showcase Lagoon while savoring authentic Mexican cuisine."
},
{
"id": "3206e3a6-cbc3-4960-9700-163764bc47d6",
"name": "Le Cellier Steakhouse",
"shortName": null,
"land": "World Showcase",
"entityType": "RESTAURANT",
"slug": "lecelliersteakhouse",
"externalId": "90001798;entityType=restaurant",
"latitude": 28.371657,
"longitude": -81.551512,
"description": "Satisfy your appetite with delectable steaks and Canadian-inspired cuisine in a cozy cellar setting, celebrating the flavors of Canada."
},
{
"id": "8f353879-d6ac-4211-9352-4029efb47c18",
"name": "Living with the Land",
"shortName": null,
"land": "World Nature",
"entityType": "ATTRACTION",
"slug": "livingwiththeland",
"externalId": "80010161;entityType=Attraction",
"latitude": 28.374245,
"longitude": -81.552301,
"description": "Embark on an educational boat journey through innovative greenhouses and sustainable farming techniques, showcasing the harmony between humanity and the environment."
},
{
"id": "37bb0aca-0dcf-4fa0-bc03-81d1b4ef9ac0",
"name": "Manatees - Disney Animals",
"shortName": null,
"land": "World Nature",
"entityType": "ATTRACTION",
"slug": "manateesdisneyanimals",
"externalId": "19440020;entityType=Attraction",
"latitude": 28.375631,
"longitude": -81.550828,
"description": "Learn about the fascinating world of manatees and observe these gentle giants as they swim gracefully in their habitat."
},
{
"id": "ea730d0c-7723-429d-89a4-9e76f053f5ac",
"name": "Mariachi Cobre",
"shortName": null,
"land": "World Showcase",
"entityType": "SHOW",
"slug": "mariachicobre",
"externalId": "19322758;entityType=Entertainment",
"latitude": 28.3711386241614,
"longitude": -81.5474807145541,
"description": "Experience the vibrant sounds of traditional Mexican music as Mariachi Cobre fills the air with lively performances that celebrate the rich cultural heritage of Mexico."
},
{
"id": "76eadac1-cdfa-45e5-a25c-54ed4c3a604f",
"name": "Marimba de las Américas",
"shortName": null,
"land": "World Showcase",
"entityType": "SHOW",
"slug": "marimbadelasamricas",
"externalId": "19277873;entityType=Entertainment",
"latitude": 28.3711386241614,
"longitude": -81.5474807145541,
"description": "Delight in the festive sounds of Latin America as this energetic musical group performs vibrant melodies and rhythms."
},
{
"id": "296d164a-8b9a-49d3-a285-637b86731260",
"name": "Matsuriza",
"shortName": null,
"land": "World Showcase",
"entityType": "SHOW",
"slug": "matsuriza",
"externalId": "80010865;entityType=Entertainment",
"latitude": 28.36786,
"longitude": -81.550389,
"description": "Be mesmerized by the rhythmic beats of traditional Japanese taiko drumming as performers bring energy and excitement to the pavilion."
},
{
"id": "33bd3bad-6803-4c5e-97ac-f7e31261a604",
"name": "Meet Anna and Elsa at Royal Sommerhus",
"shortName": null,
"land": "World Showcase",
"entityType": "SHOW",
"slug": "meetannaandelsaatroyalsommerhus",
"externalId": "17564219;entityType=Entertainment",
"latitude": 28.37097,
"longitude": -81.547134,
"description": "Meet and greet with the beloved sisters from Frozen in their charming summer cottage, where you can take photos and create magical memories."
},
{
"id": "8f8746cb-c714-4c60-848d-e2dc4e6f586b",
"name": "Mexico Folk Art Gallery",
"shortName": null,
"land": "World Showcase",
"entityType": "ATTRACTION",
"slug": "mexicofolkartgallery",
"externalId": "80069743;entityType=Attraction",
"latitude": 28.371511,
"longitude": -81.54746,
"description": "Immerse yourself in the vibrant world of Mexican folk art as this gallery showcases the creativity and craftsmanship of traditional Mexican artisans."
},
{
"id": "5b6475ad-4e9a-4793-b841-501aa382c9c0",
"name": "Mission: SPACE",
"shortName": null,
"land": "World Discovery",
"entityType": "ATTRACTION",
"slug": "missionspace",
"externalId": "80010173;entityType=Attraction",
"latitude": 28.373927,
"longitude": -81.547156,
"description": "Experience the sensation of space travel as you embark on an exciting mission to Mars or orbit Earth in this thrilling simulator attraction."
},
{
"id": "93843fb0-ee5a-49c6-91a8-40a042e93865",
"name": "Monsieur Paul",
"shortName": null,
"land": "World Showcase",
"entityType": "RESTAURANT",
"slug": "monsieurpaul",
"externalId": "90001296;entityType=restaurant",
"latitude": 28.368868,
"longitude": -81.55273,
"description": "Experience the art of fine French dining in a sophisticated setting, where you can enjoy an exquisite menu created by talented chefs."
},
{
"id": "e8dccc86-cfb4-44c3-9a90-e95b88edbd21",
"name": "Nine Dragons Restaurant",
"shortName": null,
"land": "World Showcase",
"entityType": "RESTAURANT",
"slug": "ninedragonsrestaurant",
"externalId": "90001985;entityType=restaurant",
"latitude": 28.370056,
"longitude": -81.546688,
"description": "Savor the flavors of China as this restaurant serves up delectable dishes influenced by regional Chinese cuisine."
},
{
"id": "18c533d6-a395-4ae4-9488-80fce9c497fe",
"name": "Palais du Cinéma",
"shortName": null,
"land": "World Showcase",
"entityType": "ATTRACTION",
"slug": "palaisducinma",
"externalId": "19503896;entityType=Attraction",
"latitude": 28.368864,
"longitude": -81.552978,
"description": "Step into the captivating world of classic French cinema as this exhibit showcases the rich history and artistic contributions of French filmmakers. Explore the magic of iconic movie clips and treasures."
},
{
"id": "9053240b-7f7f-44fe-970b-bd7956cd5d4f",
"name": "Project Tomorrow: Inventing the Wonders of the Future",
"shortName": "Project Tomorrow",
"land": "World Celebration",
"entityType": "ATTRACTION",
"slug": "projecttomorrowinventingthewondersofthefuture",
"externalId": "220239;entityType=Attraction",
"latitude": 28.37476,
"longitude": -81.549401,
"description": "Embark on a journey of innovation and possibilities in this interactive exhibit showcasing technological advancements and ideas that shape the world of tomorrow."
},
{
"id": "9244365a-ffad-4ea1-ad8d-a36ac3a0e383",
"name": "Reef Fish - Disney Animals",
"shortName": null,
"land": "World Nature",
"entityType": "ATTRACTION",
"slug": "reeffishdisneyanimals",
"externalId": "18672355;entityType=Attraction",
"latitude": 28.375631,
"longitude": -81.550795,
"description": "Observe and learn about a fascinating array of reef fish in this educational exhibit dedicated to the conservation of marine ecosystems."
},
{
"id": "ee070d46-6a64-41c0-9f12-69dcfcca10a0",
"name": "Reflections of China",
"shortName": null,
"land": "World Showcase",
"entityType": "ATTRACTION",
"slug": "reflectionsofchina",
"externalId": "80010180;entityType=Attraction",
"latitude": 28.369791,
"longitude": -81.546381,
"description": "Immerse yourself in the beauty and culture of China as you journey through stunning landscapes and iconic landmarks in this 360-degree film."
},
{
"id": "1e735ffb-4868-47f1-b2cd-2ac1156cd5f0",
"name": "Remy's Ratatouille Adventure",
"shortName": null,
"land": "World Showcase",
"entityType": "ATTRACTION",
"slug": "remysratatouilleadventureopeningoctober12021",
"externalId": "19497835;entityType=Attraction",
"latitude": 28.36825,
"longitude": -81.553097,
"description": "Join Remy, the tiny chef from Ratatouille, on a fun-filled adventure through Gusteau's restaurant in this 4D dark ride experience."
},
{
"id": "8a877212-9020-43d2-9ead-604b392d8cce",
"name": "Restaurant Marrakesh",
"shortName": null,
"land": "World Showcase",
"entityType": "RESTAURANT",
"slug": "restaurantmarrakesh",
"externalId": "90002068;entityType=restaurant",
"latitude": 28.367827,
"longitude": -81.552107,
"description": "Experience the flavors of Morocco in a restaurant filled with vibrant colors and live entertainment, offering a taste of traditional Moroccan cuisine and culture."
},
{
"id": "6ecdbfc8-85c2-436d-893b-6db0f437b74a",
"name": "Rose & Crown Dining Room",
"shortName": null,
"land": "World Showcase",
"entityType": "RESTAURANT",
"slug": "rosecrowndiningroom",
"externalId": "90002084;entityType=restaurant",
"latitude": 28.370508,
"longitude": -81.551684,
"description": "Savor classic British dishes and spirits in an authentic pub atmosphere overlooking the World Showcase Lagoon."
},
{
"id": "41aba635-48e4-43bf-9bb1-3b811b5705d0",
"name": "Rose & Crown Pub Musician",
"shortName": null,
"land": "World Showcase",
"entityType": "SHOW",
"slug": "epcotpianist",
"externalId": "17490262;entityType=Entertainment",
"latitude": 28.370467,
"longitude": -81.551677,
"description": "Unwind in a cozy British pub atmosphere and enjoy live musical performances while savoring British fare and drinks."
},
{
"id": "07263f57-0431-4da2-a8b6-77d2965a6f83",
"name": "San Angel Inn Restaurante",
"shortName": null,
"land": "World Showcase",
"entityType": "RESTAURANT",
"slug": "sanangelinnrestaurante",
"externalId": "90002100;entityType=restaurant",
"latitude": 28.371612,
"longitude": -81.547258,
"description": "Transport yourself to a romantic Mexican courtyard setting while savoring authentic Mexican cuisine amidst views of the starlit night."
},
{
"id": "ade9aa6d-2eb0-4046-b04d-a0f98d0682d9",
"name": "Sea Turtles - Disney Animals",
"shortName": null,
"land": "World Nature",
"entityType": "ATTRACTION",
"slug": "seaturtlesdisneyanimals",
"externalId": "17883692;entityType=Attraction",
"latitude": 28.375631,
"longitude": -81.550828,
"description": "Get up close to sea turtles and learn about their fascinating behaviors and conservation efforts to protect these magnificent creatures."
},
{
"id": "7969166f-feef-4350-b26e-6a6c745528f4",
"name": "SeaBase",
"shortName": null,
"land": "World Nature",
"entityType": "ATTRACTION",
"slug": "seabase",
"externalId": "80010184;entityType=Attraction",
"latitude": 28.375098,
"longitude": -81.551211,
"description": "Immerse yourself in an underwater adventure as you explore a massive saltwater aquarium teeming with marine life from around the world."
},
{
"id": "83fed9d1-c25f-497c-ab8e-21e4dd7ce655",
"name": "Sergio",
"shortName": null,
"land": "World Showcase",
"entityType": "SHOW",
"slug": "sergio",
"externalId": "80010873;entityType=Entertainment",
"latitude": 28.367692,
"longitude": -81.548249,
"description": "Witness the captivating juggling skills and comedic talents of Sergio as he entertains guests of all ages with his lively street performances."
},
{
"id": "4d34dd80-4042-4ada-a74f-ef35a0887b4f",
"name": "Sharks and Rays - Disney Animals",
"shortName": null,
"land": "World Nature",
"entityType": "ATTRACTION",
"slug": "sharksandraysdisneyanimals",
"externalId": "17883691;entityType=Attraction",
"latitude": 28.375631,
"longitude": -81.550904,
"description": "Encounter and learn about the fascinating world of sharks and rays in this interactive exhibit dedicated to marine life education and conservation."
},
{
"id": "81b15dfd-cf6a-466f-be59-3dd65d2a2807",
"name": "Soarin' Around the World",
"shortName": null,
"land": "World Nature",
"entityType": "ATTRACTION",
"slug": "soarinaroundtheworld",
"externalId": "20194;entityType=Attraction",
"latitude": 28.373592,
"longitude": -81.552248,
"description": "Take flight on an exhilarating simulated hang-gliding adventure over awe-inspiring global landmarks and natural wonders. Experience the breathtaking beauty of the world from a unique perspective."
},
{
"id": "15107c34-65a3-473c-aaeb-655b508f529d",
"name": "Space 220 Lounge",
"shortName": null,
"land": "World Discovery",
"entityType": "RESTAURANT",
"slug": null,
"externalId": "19634138;entityType=restaurant",
"latitude": 28.373777,
"longitude": -81.547056,
"description": "Elevate your dining experience in this celestial-themed lounge offering an array of creative cocktails and picturesque views of outer space."
},
{
"id": "b772df79-1fca-4c0a-a2f3-88b22e63e7c3",
"name": "Space 220 Restaurant",
"shortName": null,
"land": "World Discovery",
"entityType": "RESTAURANT",
"slug": "space220comingsoon",
"externalId": "19433706;entityType=restaurant",
"latitude": 28.373777,
"longitude": -81.547056,
"description": "Elevate your dining experience to new heights as you enjoy out-of-this-world cuisine in a space-themed restaurant with breathtaking views of Earth from space."
},
{
"id": "480fde8f-fe58-4bfb-b3ab-052a39d4db7c",
"name": "Spaceship Earth",
"shortName": null,
"land": "World Celebration",
"entityType": "ATTRACTION",
"slug": "spaceshipearth",
"externalId": "80010191;entityType=Attraction",
"latitude": 28.375583,
"longitude": -81.549401,
"description": "Embark on a time-traveling journey through the history of communication and human progress in this iconic geodesic sphere attraction."
},
{
"id": "09120193-f2db-4073-8ea8-be994e61e5b3",
"name": "Spaceship Earth: A Beacon of Magic",
"shortName": null,
"land": "World Celebration",
"entityType": "SHOW",
"slug": null,
"externalId": "411500814;entityType=Entertainment",
"latitude": 28.3755672385385,
"longitude": -81.5493971089544,
"description": "Marvel at the iconic Spaceship Earth as it transforms into a stunning beacon of light, illuminating the night sky with an inspiring spectacle."
},
{
"id": "dbf4a977-a7b5-41db-a9b7-ecad65f9aa0f",
"name": "Spice Road Table",
"shortName": null,
"land": "World Showcase",
"entityType": "RESTAURANT",
"slug": "spiceroadtable",
"externalId": "17720675;entityType=restaurant",
"latitude": 28.368468,
"longitude": -81.551645,
"description": "Delight your senses with the flavors of the Mediterranean in this picturesque waterfront restaurant, offering delectable dishes and stunning views."
},
{
"id": "66ff36de-9cb3-4d9a-b891-1665d19ffb3e",
"name": "Stave Church Gallery",
"shortName": null,
"land": "World Showcase",
"entityType": "ATTRACTION",
"slug": "stavechurchgallery",
"externalId": "61525;entityType=Attraction",
"latitude": 28.370621,
"longitude": -81.546971,
"description": "Step into a traditional Norwegian stave church and explore exhibits highlighting Norway's captivating history and folklore."
},
{
"id": "8410885a-115d-4a5f-9cd5-08d0e659a603",
"name": "Takumi-Tei",
"shortName": null,
"land": "World Showcase",
"entityType": "RESTAURANT",
"slug": "takumitei",
"externalId": "19317888;entityType=restaurant",
"latitude": 28.367848,
"longitude": -81.550833,
"description": "Indulge in an upscale dining experience with a kaiseki multi-course menu that celebrates seasonal Japanese ingredients. Immerse yourself in the refined ambiance inspired by the beauty of Japan."
},
{
"id": "17d51899-7d6d-4cd7-93bb-4064a47d501b",
"name": "Teppan Edo",
"shortName": null,
"land": "World Showcase",
"entityType": "RESTAURANT",
"slug": "teppanedo",
"externalId": "221625;entityType=restaurant",
"latitude": 28.367674,
"longitude": -81.550701,
"description": "Experience the art of teppanyaki dining as skilled chefs prepare your meal with flair right before your eyes. Enjoy delicious Japanese dishes in an interactive and entertaining setting."
},
{
"id": "37ae57c5-feaf-4e47-8f27-4b385be200f0",
"name": "Test Track",
"shortName": null,
"land": "World Discovery",
"entityType": "ATTRACTION",
"slug": "testtrack",
"externalId": "80010199;entityType=Attraction",
"latitude": 28.373228,
"longitude": -81.547489,
"description": "Design your own virtual concept vehicle and then put it to the test on an exhilarating high-speed ride through a series of thrilling automotive challenges."
},
{
"id": "1f542745-cda1-4786-a536-5fff373e5964",
"name": "The American Adventure",
"shortName": null,
"land": "World Showcase",
"entityType": "ATTRACTION",
"slug": "theamericanadventure",
"externalId": "80010200;entityType=Attraction",
"latitude": 28.367517,
"longitude": -81.549446,
"description": "Embark on a patriotic journey through American history, culture, and accomplishments in this inspiring multimedia show featuring audio-animatronics and stirring music."
},
{
"id": "fb076275-0570-4d62-b2a9-4d6515130fa3",
"name": "The Seas with Nemo & Friends",
"shortName": null,
"land": "World Nature",
"entityType": "ATTRACTION",
"slug": "theseaswithnemofriends",
"externalId": "107785;entityType=Attraction",
"latitude": 28.374904,
"longitude": -81.550852,
"description": "Dive into an underwater world with live animals, interactive exhibits, and an adventure with Nemo and friends in this pavilion dedicated to marine exploration and conservation."
},
{
"id": "48e7f9f2-ddc3-4ced-8d11-a5cd968085c2",
"name": "Tokyo Dining",
"shortName": null,
"land": "World Showcase",
"entityType": "RESTAURANT",
"slug": "tokyodining",
"externalId": "221626;entityType=restaurant",
"latitude": 28.367709,
"longitude": -81.550701,
"description": "Savor an array of delectable Japanese dishes in a contemporary setting that captures the essence of modern Tokyo dining."
},
{
"id": "57acb522-a6fc-4aa4-a80e-21f21f317250",
"name": "Turtle Talk With Crush",
"shortName": null,
"land": "World Nature",
"entityType": "ATTRACTION",
"slug": "turtletalkwithcrush",
"externalId": "62992;entityType=Attraction",
"latitude": 28.375255,
"longitude": -81.551047,
"description": "Dive into an interactive show where you can chat and interact with Crush, the beloved sea turtle from Finding Nemo, in an unforgettable undersea adventure filled with humor and surprises."
},
{
"id": "e14e439d-d1aa-4f3a-90e9-60c524bd0b5a",
"name": "Tutto Italia Ristorante",
"shortName": null,
"land": "World Showcase",
"entityType": "RESTAURANT",
"slug": "tuttoitaliaristorante",
"externalId": "220739;entityType=restaurant",
"latitude": 28.367627,
"longitude": -81.548052,
"description": "Indulge in the flavors of Italy in this charming trattoria, where you can savor traditional Italian cuisine and savor the essence of Italy."
},
{
"id": "b83b6dc9-9573-4e15-ab00-9ed8a2334770",
"name": "Via Napoli Ristorante e Pizzeria",
"shortName": null,
"land": "World Showcase",
"entityType": "RESTAURANT",
"slug": "vianapoliristoranteepizzeria",
"externalId": "15525574;entityType=restaurant",
"latitude": 28.367354,
"longitude": -81.548192,
"description": "Delight in mouthwatering Neapolitan pizzas and traditional Italian dishes in this vibrant pizzeria, inspired by the authentic flavors of Southern Italy."
},
{
"id": "001b099f-4db8-4843-8c1e-852e0e8fc2df",
"name": "Viva Mexico",
"shortName": null,
"land": "World Showcase",
"entityType": "SHOW",
"slug": "vivamexico",
"externalId": "209984;entityType=Entertainment",
"latitude": 28.370993,
"longitude": -81.547454,
"description": "Discover authentic Mexican craftsmanship and souvenirs at this vibrant open-air marketplace showcasing the creativity and talent of Mexican artisans."
},
{
"id": "c5f6c7e4-d5cd-4d71-8e02-57d8bb43b3ba",
"name": "Voices of Liberty",
"shortName": null,
"land": "World Showcase",
"entityType": "SHOW",
"slug": "voicesofliberty",
"externalId": "80010879;entityType=Entertainment",
"latitude": 28.367595,
"longitude": -81.549387,
"description": "Be enchanted by the harmonious a cappella performances of this talented vocal group, showcasing American patriotic songs and classic melodies."
}
]
